Timestamp,Roll,Pitch,Throttle,Yaw,Armed,Mode,IMU_Pitch,IMU_Yaw,IMU_Roll,IMU_GForce,Motor_1,Motor_2,Motor_3,Motor_4
2024-08-05 22:45:47,1500,1500,988,1500,False,ANGLE,-1.1807680064089832,-18.60241081999668,7.612311722582059,1.0,0,0,0,0
2024-08-05 22:45:47,1500,1500,988,1500,False,ANGLE,-1.1807680064089832,-18.60241081999668,7.612311722582059,1.0,0,0,0,0
2024-08-05 22:45:47,1500,1500,988,1500,False,ANGLE,-1.1807680064089832,-18.60241081999668,7.612311722582059,1.0,0,0,0,0
2024-08-05 22:45:47,1500,1500,988,1500,False,ANGLE,-1.1807680064089832,-18.60241081999668,7.612311722582059,1.0,0,0,0,0
2024-08-05 22:45:47,1500,1500,988,1500,False,ANGLE,-1.1807680064089832,-18.60241081999668,7.612311722582059,1.0,0,0,0,0
2024-08-05 22:45:47,1500,1500,988,1500,False,ANGLE,-1.1807680064089832,-18.60241081999668,7.612311722582059,1.0,0,0,0,0
2024-08-05 22:45:47,1500,1500,988,1500,False,ANGLE,-1.1807680064089832,-18.60241081999668,7.612311722582059,1.0,0,0,0,0
2024-08-05 22:45:47,1500,1500,988,1500,False,ANGLE,-1.1807680064089832,-18.60241081999668,7.612311722582059,1.0,0,0,0,0
2024-08-05 22:45:47,1500,1500,988,1500,False,ANGLE,-1.1807680064089832,-18.60241081999668,7.612311722582059,1.0,0,0,0,0
2024-08-05 22:45:47,1500,1500,988,1500,False,ANGLE,-1.1807680064089832,-18.60241081999668,7.612311722582059,1.0,0,0,0,0
2024-08-05 22:45:47,1500,1500,988,1500,False,ANGLE,-1.1807680064089832,-18.60241081999668,7.612311722582059,1.0,0,0,0,0
2024-08-05 22:45:47,1500,1500,988,1500,False,ANGLE,-1.1807680064089832,-18.60241081999668,7.612311722582059,1.0,0,0,0,0
2024-08-05 22:45:47,1500,1500,988,1500,True,ANGLE,-1.1807680064089832,-18.60241081999668,7.612311722582059,1.0,404,404,396,396
2024-08-05 22:45:47,1500,1500,988,1500,True,ANGLE,-1.1807680064089832,-18.60241081999668,7.612311722582059,1.0,404,404,396,396
2024-08-05 22:45:47,1500,1500,988,1500,True,ANGLE,-1.1807680064089832,-18.60241081999668,7.612311722582059,1.0,404,404,396,396
2024-08-05 22:45:47,1500,1500,988,1500,True,ANGLE,-1.1807680064089832,-18.60241081999668,7.612311722582059,1.0,404,404,396,396
2024-08-05 22:45:47,1500,1500,988,1500,True,ANGLE,-1.1807680064089832,-18.60241081999668,7.612311722582059,1.0,404,404,396,396
2024-08-05 22:45:47,1500,1500,988,1500,True,ANGLE,-1.1807680064089832,-18.60241081999668,7.612311722582059,1.0,404,404,396,396
2024-08-05 22:45:47,1500,1500,988,1500,True,ANGLE,-1.1807680064089832,-18.60241081999668,7.612311722582059,1.0,404,404,396,396
2024-08-05 22:45:47,1500,1500,988,1500,True,ANGLE,-1.1807680064089832,-18.60241081999668,7.612311722582059,1.0,404,404,396,396
2024-08-05 22:45:47,1500,1500,988,1500,True,ANGLE,-1.1807680064089832,-18.60241081999668,7.612311722582059,1.0,404,404,396,396
2024-08-05 22:45:47,1500,1500,988,1500,True,ANGLE,-1.1807680064089832,-18.60241081999668,7.612311722582059,1.0,404,404,396,396
2024-08-05 22:45:47,1500,1500,988,1500,True,ANGLE,-1.1807680064089832,-18.60241081999668,7.612311722582059,1.0,404,404,396,396
2024-08-05 22:45:47,1500,1500,988,1500,True,ANGLE,-1.1807680064089832,-18.60241081999668,7.612311722582059,1.0,404,404,396,396
2024-08-05 22:45:47,1500,1500,988,1500,True,ANGLE,-1.1807680064089832,-18.60241081999668,7.612311722582059,1.0,404,404,396,396
2024-08-05 22:45:47,1500,1500,988,1500,True,ANGLE,-1.1807680064089832,-18.60241081999668,7.612311722582059,1.0,404,404,396,396
2024-08-05 22:45:47,1500,1500,988,1500,True,ANGLE,-1.1807680064089832,-18.60241081999668,7.612311722582059,1.0,404,404,396,396
2024-08-05 22:45:47,1500,1500,988,1500,True,ANGLE,-1.1807680064089832,-18.60241081999668,7.612311722582059,1.0,404,404,396,396
2024-08-05 22:45:47,1500,1500,988,1500,True,ANGLE,-1.1807680064089832,-18.60241081999668,7.612311722582059,1.0,404,404,396,396
2024-08-05 22:45:47,1500,1500,988,1500,True,ANGLE,-1.1807680064089832,-18.60241081999668,7.612311722582059,1.0,404,404,396,396
2024-08-05 22:45:47,1500,1500,988,1500,True,ANGLE,-1.1807680064089832,-18.60241081999668,7.612311722582059,1.0,404,404,396,396
2024-08-05 22:45:47,1500,1500,988,1500,True,ANGLE,-1.1807680064089832,-18.60241081999668,7.612311722582059,1.0,404,404,396,396
2024-08-05 22:45:47,1500,1500,988,1500,True,ANGLE,-1.1807680064089832,-18.60241081999668,7.612311722582059,1.0,404,404,396,396
2024-08-05 22:45:48,1500,1500,988,1500,True,ANGLE,-1.1807680064089832,-18.60241081999668,7.612311722582059,1.0,404,404,396,396
2024-08-05 22:45:48,1500,1500,988,1500,True,ANGLE,-1.1807680064089832,-18.60241081999668,7.612311722582059,1.0,404,404,396,396
2024-08-05 22:45:48,1500,1500,988,1500,True,ANGLE,-1.1807680064089832,-18.60241081999668,7.612311722582059,1.0,404,404,396,396
2024-08-05 22:45:48,1500,1500,988,1500,True,ANGLE,-1.1807680064089832,-18.60241081999668,7.612311722582059,1.0,404,404,396,396
2024-08-05 22:45:48,1500,1500,988,1500,True,ANGLE,-1.1807680064089832,-18.60241081999668,7.612311722582059,1.0,404,404,396,396
2024-08-05 22:45:48,1500,1500,988,1500,True,ANGLE,-1.1807680064089832,-18.60241081999668,7.612311722582059,1.0,404,404,396,396
2024-08-05 22:45:48,1500,1500,988,1500,True,ANGLE,-1.1807680064089832,-18.60241081999668,7.612311722582059,1.0,404,404,396,396
2024-08-05 22:45:48,1500,1500,988,1500,True,ANGLE,-1.1807680064089832,-18.60241081999668,7.612311722582059,1.0,404,404,396,396
2024-08-05 22:45:48,1500,1500,988,1500,True,ANGLE,-1.1807680064089832,-18.60241081999668,7.612311722582059,1.0,404,404,396,396
2024-08-05 22:45:48,1500,1500,988,1500,True,ANGLE,-1.1807680064089832,-18.60241081999668,7.612311722582059,1.0,404,404,396,396
2024-08-05 22:45:48,1500,1500,988,1500,True,ANGLE,-1.1807680064089832,-18.60241081999668,7.612311722582059,1.0,404,404,396,396
2024-08-05 22:45:48,1500,1500,988,1500,True,ANGLE,-1.1807680064089832,-18.60241081999668,7.612311722582059,1.0,404,404,396,396
2024-08-05 22:45:48,1500,1500,988,1500,True,ANGLE,-1.1807680064089832,-18.60241081999668,7.612311722582059,1.0,404,404,396,396
2024-08-05 22:45:48,1500,1500,988,1500,True,ANGLE,-1.1807680064089832,-18.60241081999668,7.612311722582059,1.0,404,404,396,396
2024-08-05 22:45:48,1500,1500,988,1500,True,ANGLE,-1.1807680064089832,-18.60241081999668,7.612311722582059,1.0,404,404,396,396
2024-08-05 22:45:48,1500,1500,988,1500,True,ANGLE,-1.1807680064089832,-18.60241081999668,7.612311722582059,1.0,404,404,396,396
2024-08-05 22:45:48,1500,1500,988,1500,True,ANGLE,-1.1807680064089832,-18.60241081999668,7.612311722582059,1.0,404,404,396,396
2024-08-05 22:45:48,1500,1500,988,1500,True,ANGLE,-1.1807680064089832,-18.60241081999668,7.612311722582059,1.0,404,404,396,396
2024-08-05 22:45:48,1500,1500,988,1500,True,ANGLE,-1.1807680064089832,-18.60241081999668,7.612311722582059,1.0,404,404,396,396
2024-08-05 22:45:48,1500,1500,988,1500,True,ANGLE,-1.1807680064089832,-18.60241081999668,7.612311722582059,1.0,404,404,396,396
2024-08-05 22:45:48,1500,1500,988,1500,True,ANGLE,-1.1807680064089832,-18.60241081999668,7.612311722582059,1.0,404,404,396,396
2024-08-05 22:45:48,1500,1500,988,1500,True,ANGLE,-1.1807680064089832,-18.60241081999668,7.612311722582059,1.0,404,404,396,396
2024-08-05 22:45:48,1500,1500,988,1500,True,ANGLE,-1.1807680064089832,-18.60241081999668,7.612311722582059,1.0,404,404,396,396
2024-08-05 22:45:48,1500,1500,988,1500,True,ANGLE,-1.1807680064089832,-18.60241081999668,7.612311722582059,1.0,404,404,396,396
2024-08-05 22:45:48,1500,1500,988,1500,True,ANGLE,-1.1807680064089832,-18.60241081999668,7.612311722582059,1.0,404,404,396,396
2024-08-05 22:45:48,1500,1500,988,1500,True,ANGLE,-1.1807680064089832,-18.60241081999668,7.612311722582059,1.0,404,404,396,396
2024-08-05 22:45:48,1500,1500,988,1500,True,ANGLE,-1.1807680064089832,-18.60241081999668,7.612311722582059,1.0,404,404,396,396
2024-08-05 22:45:48,1500,1500,988,1500,True,ANGLE,-1.1807680064089832,-18.60241081999668,7.612311722582059,1.0,404,404,396,396
2024-08-05 22:45:48,1500,1500,988,1500,True,ANGLE,-1.1807680064089832,-18.60241081999668,7.612311722582059,1.0,404,404,396,396
2024-08-05 22:45:48,1500,1500,988,1500,True,ANGLE,-1.1807680064089832,-18.60241081999668,7.612311722582059,1.0,404,404,396,396
2024-08-05 22:45:48,1500,1500,988,1500,True,ANGLE,-1.1807680064089832,-18.60241081999668,7.612311722582059,1.0,404,404,396,396
2024-08-05 22:45:48,1500,1500,988,1500,True,ANGLE,-1.1807680064089832,-18.60241081999668,7.612311722582059,1.0,404,404,396,396
2024-08-05 22:45:48,1500,1500,988,1500,True,ANGLE,-1.1807680064089832,-18.60241081999668,7.612311722582059,1.0,404,404,396,396
2024-08-05 22:45:48,1500,1500,988,1500,True,ANGLE,-1.1807680064089832,-18.60241081999668,7.612311722582059,1.0,404,404,396,396
2024-08-05 22:45:48,1500,1500,988,1500,True,ANGLE,-1.1807680064089832,-18.60241081999668,7.612311722582059,1.0,404,404,396,396
2024-08-05 22:45:48,1500,1500,988,1500,True,ANGLE,-1.1807680064089832,-18.60241081999668,7.612311722582059,1.0,404,404,396,396
2024-08-05 22:45:48,1500,1500,988,1500,True,ANGLE,-1.1807680064089832,-18.60241081999668,7.612311722582059,1.0,404,404,396,396
2024-08-05 22:45:48,1500,1500,988,1500,True,ANGLE,-1.1807680064089832,-18.60241081999668,7.612311722582059,1.0,404,404,396,396
2024-08-05 22:45:48,1500,1500,988,1500,True,ANGLE,-1.1807680064089832,-18.60241081999668,7.612311722582059,1.0,404,404,396,396
2024-08-05 22:45:48,1500,1500,988,1500,True,ANGLE,-1.1807680064089832,-18.60241081999668,7.612311722582059,1.0,404,404,396,396
2024-08-05 22:45:48,1500,1500,988,1500,True,ANGLE,-1.1807680064089832,-18.60241081999668,7.612311722582059,1.0,404,404,396,396
2024-08-05 22:45:48,1500,1500,988,1500,True,ANGLE,-1.1807680064089832,-18.60241081999668,7.612311722582059,1.0,404,404,396,396
2024-08-05 22:45:48,1470,1500,988,1500,True,ANGLE,-1.1807680064089832,-18.60241081999668,7.612311722582059,1.0,405,405,395,395
2024-08-05 22:45:48,1470,1500,988,1500,True,ANGLE,-1.1807680064089832,-18.60241081999668,7.612311722582059,1.0,405,405,395,395
2024-08-05 22:45:48,1470,1500,988,1500,True,ANGLE,-1.1807680064089832,-18.60241081999668,7.612311722582059,1.0,405,405,395,395
2024-08-05 22:45:48,1377,1500,988,1500,True,ANGLE,-1.1807680064089832,-18.60241081999668,7.612311722582059,1.0,412,412,388,388
2024-08-05 22:45:48,1377,1500,988,1500,True,ANGLE,-1.1807680064089832,-18.60241081999668,7.612311722582059,1.0,412,412,388,388
2024-08-05 22:45:48,1377,1500,988,1500,True,ANGLE,-1.1807680064089832,-18.60241081999668,7.612311722582059,1.0,412,412,388,388
2024-08-05 22:45:48,1377,1500,988,1500,True,ANGLE,-1.1807680064089832,-18.60241081999668,7.612311722582059,1.0,412,412,388,388
2024-08-05 22:45:48,1250,1500,988,1500,True,ANGLE,-1.1807680064089832,-18.60241081999668,7.612311722582059,1.0,426,426,374,374
2024-08-05 22:45:48,1250,1500,988,1500,True,ANGLE,-1.1807680064089832,-18.60241081999668,7.612311722582059,1.0,426,426,374,374
2024-08-05 22:45:48,1250,1500,988,1500,True,ANGLE,-1.1807680064089832,-18.60241081999668,7.612311722582059,1.0,426,426,374,374
2024-08-05 22:45:48,1207,1500,988,1500,True,ANGLE,-1.1807680064089832,-18.60241081999668,7.612311722582059,1.0,431,431,369,369
2024-08-05 22:45:48,1167,1497,988,1500,True,ANGLE,-1.1807680064089832,-18.60241081999668,7.612311722582059,1.0,437,437,363,363
2024-08-05 22:45:48,1167,1497,988,1500,True,ANGLE,-1.1807680064089832,-18.60241081999668,7.612311722582059,1.0,437,437,363,363
2024-08-05 22:45:48,1127,1487,988,1500,True,ANGLE,-1.1807680064089832,-18.60241081999668,7.612311722582059,1.0,444,444,356,356
2024-08-05 22:45:48,1127,1487,988,1500,True,ANGLE,-1.1807680064089832,-18.60241081999668,7.612311722582059,1.0,444,444,356,356
2024-08-05 22:45:48,1127,1487,988,1500,True,ANGLE,-1.1807680064089832,-18.60241081999668,7.612311722582059,1.0,444,444,356,356
2024-08-05 22:45:48,1091,1481,988,1500,True,ANGLE,-1.1807680064089832,-18.60241081999668,7.612311722582059,1.0,450,450,350,350
2024-08-05 22:45:48,1062,1472,988,1500,True,ANGLE,-1.1807680064089832,-18.60241081999668,7.612311722582059,1.0,455,455,345,345
2024-08-05 22:45:48,1062,1472,988,1500,True,ANGLE,-1.1807680064089832,-18.60241081999668,7.612311722582059,1.0,455,455,345,345
2024-08-05 22:45:48,1044,1472,988,1500,True,ANGLE,-1.1807680064089832,-18.60241081999668,7.612311722582059,1.0,458,458,342,342
2024-08-05 22:45:48,1044,1472,988,1500,True,ANGLE,-1.1807680064089832,-18.60241081999668,7.612311722582059,1.0,458,458,342,342
2024-08-05 22:45:48,1044,1472,988,1500,True,ANGLE,-1.1807680064089832,-18.60241081999668,7.612311722582059,1.0,458,458,342,342
2024-08-05 22:45:48,1029,1465,988,1500,True,ANGLE,-1.1807680064089832,-18.60241081999668,7.612311722582059,1.0,461,461,339,339
2024-08-05 22:45:48,1010,1465,988,1500,True,ANGLE,-1.1807680064089832,-18.60241081999668,7.612311722582059,1.0,465,465,335,335
2024-08-05 22:45:48,1010,1465,988,1500,True,ANGLE,-1.1807680064089832,-18.60241081999668,7.612311722582059,1.0,465,465,335,335
2024-08-05 22:45:48,1010,1465,988,1500,True,ANGLE,-1.1807680064089832,-18.60241081999668,7.612311722582059,1.0,465,465,335,335
2024-08-05 22:45:48,994,1465,988,1500,True,ANGLE,-1.1807680064089832,-18.60241081999668,7.612311722582059,1.0,468,468,332,332
2024-08-05 22:45:48,994,1465,988,1500,True,ANGLE,-1.1807680064089832,-18.60241081999668,7.612311722582059,1.0,468,468,332,332
2024-08-05 22:45:48,994,1465,988,1500,True,ANGLE,-1.1807680064089832,-18.60241081999668,7.612311722582059,1.0,468,468,332,332
2024-08-05 22:45:48,994,1473,988,1500,True,ANGLE,-1.1807680064089832,-18.60241081999668,7.612311722582059,1.0,468,468,332,332
2024-08-05 22:45:48,994,1473,988,1500,True,ANGLE,-1.1807680064089832,-18.60241081999668,7.612311722582059,1.0,468,468,332,332
2024-08-05 22:45:48,994,1473,988,1500,True,ANGLE,-1.1807680064089832,-18.60241081999668,7.612311722582059,1.0,468,468,332,332
2024-08-05 22:45:48,994,1473,988,1500,True,ANGLE,-1.1807680064089832,-18.60241081999668,7.612311722582059,1.0,468,468,332,332
2024-08-05 22:45:48,994,1481,988,1500,True,ANGLE,-1.1807680064089832,-18.60241081999668,7.612311722582059,1.0,468,468,332,332
2024-08-05 22:45:48,994,1481,988,1500,True,ANGLE,-1.1807680064089832,-18.60241081999668,7.612311722582059,1.0,468,468,332,332
2024-08-05 22:45:48,994,1481,988,1500,True,ANGLE,-1.1807680064089832,-18.60241081999668,7.612311722582059,1.0,468,468,332,332
2024-08-05 22:45:48,994,1481,988,1500,True,ANGLE,-1.1807680064089832,-18.60241081999668,7.612311722582059,1.0,468,468,332,332
2024-08-05 22:45:48,994,1487,988,1500,True,ANGLE,-1.1807680064089832,-18.60241081999668,7.612311722582059,1.0,468,468,332,332
2024-08-05 22:45:48,994,1487,988,1500,True,ANGLE,-1.1807680064089832,-18.60241081999668,7.612311722582059,1.0,468,468,332,332
2024-08-05 22:45:48,994,1487,988,1500,True,ANGLE,-1.1807680064089832,-18.60241081999668,7.612311722582059,1.0,468,468,332,332
2024-08-05 22:45:48,994,1487,988,1500,True,ANGLE,-1.1807680064089832,-18.60241081999668,7.612311722582059,1.0,468,468,332,332
2024-08-05 22:45:48,994,1487,988,1500,True,ANGLE,-1.1807680064089832,-18.60241081999668,7.612311722582059,1.0,468,468,332,332
2024-08-05 22:45:48,994,1487,988,1500,True,ANGLE,-1.1807680064089832,-18.60241081999668,7.612311722582059,1.0,468,468,332,332
2024-08-05 22:45:48,994,1487,988,1500,True,ANGLE,-1.1807680064089832,-18.60241081999668,7.612311722582059,1.0,468,468,332,332
2024-08-05 22:45:48,994,1487,988,1500,True,ANGLE,-1.1807680064089832,-18.60241081999668,7.612311722582059,1.0,468,468,332,332
2024-08-05 22:45:48,994,1487,988,1500,True,ANGLE,-1.1807680064089832,-18.60241081999668,7.612311722582059,1.0,468,468,332,332
2024-08-05 22:45:48,994,1487,988,1500,True,ANGLE,-1.1807680064089832,-18.60241081999668,7.612311722582059,1.0,468,468,332,332
2024-08-05 22:45:48,994,1487,988,1500,True,ANGLE,-1.1807680064089832,-18.60241081999668,7.612311722582059,1.0,468,468,332,332
2024-08-05 22:45:48,994,1487,988,1500,True,ANGLE,-1.1807680064089832,-18.60241081999668,7.612311722582059,1.0,468,468,332,332
2024-08-05 22:45:48,994,1487,988,1500,True,ANGLE,-1.1807680064089832,-18.60241081999668,7.612311722582059,1.0,468,468,332,332
2024-08-05 22:45:48,994,1487,988,1500,True,ANGLE,-1.1807680064089832,-18.60241081999668,7.612311722582059,1.0,468,468,332,332
2024-08-05 22:45:48,994,1487,988,1500,True,ANGLE,-1.1807680064089832,-18.60241081999668,7.612311722582059,1.0,468,468,332,332
2024-08-05 22:45:48,994,1487,988,1500,True,ANGLE,-1.1807680064089832,-18.60241081999668,7.612311722582059,1.0,468,468,332,332
2024-08-05 22:45:48,994,1487,988,1500,True,ANGLE,-1.1807680064089832,-18.60241081999668,7.612311722582059,1.0,468,468,332,332
2024-08-05 22:45:48,994,1486,988,1500,True,ANGLE,-1.1807680064089832,-18.60241081999668,7.612311722582059,1.0,468,468,332,332
2024-08-05 22:45:48,994,1486,988,1500,True,ANGLE,-1.1807680064089832,-18.60241081999668,7.612311722582059,1.0,468,468,332,332
2024-08-05 22:45:48,994,1486,988,1500,True,ANGLE,-1.1807680064089832,-18.60241081999668,7.612311722582059,1.0,468,468,332,332
2024-08-05 22:45:48,995,1486,988,1500,True,ANGLE,-1.1807680064089832,-18.60241081999668,7.612311722582059,1.0,468,468,332,332
2024-08-05 22:45:49,995,1486,988,1500,True,ANGLE,-1.1807680064089832,-18.60241081999668,7.612311722582059,1.0,468,468,332,332
2024-08-05 22:45:49,995,1486,988,1500,True,ANGLE,-1.1807680064089832,-18.60241081999668,7.612311722582059,1.0,468,468,332,332
2024-08-05 22:45:49,994,1485,988,1500,True,ANGLE,-1.1807680064089832,-18.60241081999668,7.612311722582059,1.0,468,468,332,332
2024-08-05 22:45:49,994,1485,988,1500,True,ANGLE,-1.1807680064089832,-18.60241081999668,7.612311722582059,1.0,468,468,332,332
2024-08-05 22:45:49,994,1485,988,1500,True,ANGLE,-1.1807680064089832,-18.60241081999668,7.612311722582059,1.0,468,468,332,332
2024-08-05 22:45:49,994,1485,988,1500,True,ANGLE,-1.1807680064089832,-18.60241081999668,7.612311722582059,1.0,468,468,332,332
2024-08-05 22:45:49,994,1485,988,1500,True,ANGLE,-1.1807680064089832,-18.60241081999668,7.612311722582059,1.0,468,468,332,332
2024-08-05 22:45:49,994,1485,988,1500,True,ANGLE,-1.1807680064089832,-18.60241081999668,7.612311722582059,1.0,468,468,332,332
2024-08-05 22:45:49,994,1485,988,1500,True,ANGLE,-1.1807680064089832,-18.60241081999668,7.612311722582059,1.0,468,468,332,332
2024-08-05 22:45:49,994,1483,988,1500,True,ANGLE,-1.1807680064089832,-18.60241081999668,7.612311722582059,1.0,468,468,332,332
2024-08-05 22:45:49,994,1483,988,1500,True,ANGLE,-1.1807680064089832,-18.60241081999668,7.612311722582059,1.0,468,468,332,332
2024-08-05 22:45:49,994,1483,988,1500,True,ANGLE,-1.1807680064089832,-18.60241081999668,7.612311722582059,1.0,468,468,332,332
2024-08-05 22:45:49,994,1482,988,1500,True,ANGLE,-1.1807680064089832,-18.60241081999668,7.612311722582059,1.0,468,468,332,332
2024-08-05 22:45:49,994,1482,988,1500,True,ANGLE,-1.1807680064089832,-18.60241081999668,7.612311722582059,1.0,468,468,332,332
2024-08-05 22:45:49,994,1482,988,1500,True,ANGLE,-1.1807680064089832,-18.60241081999668,7.612311722582059,1.0,468,468,332,332
2024-08-05 22:45:49,994,1482,988,1500,True,ANGLE,-1.1807680064089832,-18.60241081999668,7.612311722582059,1.0,468,468,332,332
2024-08-05 22:45:49,994,1482,988,1500,True,ANGLE,-1.1807680064089832,-18.60241081999668,7.612311722582059,1.0,468,468,332,332
2024-08-05 22:45:49,994,1482,988,1500,True,ANGLE,-1.1807680064089832,-18.60241081999668,7.612311722582059,1.0,468,468,332,332
2024-08-05 22:45:49,994,1482,988,1500,True,ANGLE,-1.1807680064089832,-18.60241081999668,7.612311722582059,1.0,468,468,332,332
2024-08-05 22:45:49,994,1482,988,1500,True,ANGLE,-1.1807680064089832,-18.60241081999668,7.612311722582059,1.0,468,468,332,332
2024-08-05 22:45:49,1002,1483,988,1500,True,ANGLE,-1.1807680064089832,-18.60241081999668,7.612311722582059,1.0,467,467,333,333
2024-08-05 22:45:49,1002,1483,988,1500,True,ANGLE,-1.1807680064089832,-18.60241081999668,7.612311722582059,1.0,467,467,333,333
2024-08-05 22:45:49,1002,1483,988,1500,True,ANGLE,-1.1807680064089832,-18.60241081999668,7.612311722582059,1.0,467,467,333,333
2024-08-05 22:45:49,1009,1490,988,1500,True,ANGLE,-1.1807680064089832,-18.60241081999668,7.612311722582059,1.0,465,465,335,335
2024-08-05 22:45:49,1009,1490,988,1500,True,ANGLE,-1.1807680064089832,-18.60241081999668,7.612311722582059,1.0,465,465,335,335
2024-08-05 22:45:49,1009,1490,988,1500,True,ANGLE,-1.1807680064089832,-18.60241081999668,7.612311722582059,1.0,465,465,335,335
2024-08-05 22:45:49,1009,1490,988,1500,True,ANGLE,-1.1807680064089832,-18.60241081999668,7.612311722582059,1.0,465,465,335,335
2024-08-05 22:45:49,1010,1490,988,1500,True,ANGLE,-1.1807680064089832,-18.60241081999668,7.612311722582059,1.0,465,465,335,335
2024-08-05 22:45:49,1010,1490,988,1500,True,ANGLE,-1.1807680064089832,-18.60241081999668,7.612311722582059,1.0,465,465,335,335
2024-08-05 22:45:49,1010,1490,988,1500,True,ANGLE,-1.1807680064089832,-18.60241081999668,7.612311722582059,1.0,465,465,335,335
2024-08-05 22:45:49,1010,1490,988,1500,True,ANGLE,-1.1807680064089832,-18.60241081999668,7.612311722582059,1.0,465,465,335,335
2024-08-05 22:45:49,1010,1490,988,1500,True,ANGLE,-1.1807680064089832,-18.60241081999668,7.612311722582059,1.0,465,465,335,335
2024-08-05 22:45:49,1010,1490,988,1500,True,ANGLE,-1.1807680064089832,-18.60241081999668,7.612311722582059,1.0,465,465,335,335
2024-08-05 22:45:49,1010,1490,988,1500,True,ANGLE,-1.1807680064089832,-18.60241081999668,7.612311722582059,1.0,465,465,335,335
2024-08-05 22:45:49,1010,1490,988,1500,True,ANGLE,-1.1807680064089832,-18.60241081999668,7.612311722582059,1.0,465,465,335,335
2024-08-05 22:45:49,1010,1490,988,1500,True,ANGLE,-1.1807680064089832,-18.60241081999668,7.612311722582059,1.0,465,465,335,335
2024-08-05 22:45:49,1010,1490,988,1500,True,ANGLE,-1.1807680064089832,-18.60241081999668,7.612311722582059,1.0,465,465,335,335
2024-08-05 22:45:49,1011,1488,988,1500,True,ANGLE,-1.1807680064089832,-18.60241081999668,7.612311722582059,1.0,465,465,335,335
2024-08-05 22:45:49,1011,1488,988,1500,True,ANGLE,-1.1807680064089832,-18.60241081999668,7.612311722582059,1.0,465,465,335,335
2024-08-05 22:45:49,1011,1487,988,1500,True,ANGLE,-1.1807680064089832,-18.60241081999668,7.612311722582059,1.0,465,465,335,335
2024-08-05 22:45:49,1011,1487,988,1500,True,ANGLE,-1.1807680064089832,-18.60241081999668,7.612311722582059,1.0,465,465,335,335
2024-08-05 22:45:49,1011,1487,988,1500,True,ANGLE,-1.1807680064089832,-18.60241081999668,7.612311722582059,1.0,465,465,335,335
2024-08-05 22:45:49,1011,1487,988,1500,True,ANGLE,-1.1807680064089832,-18.60241081999668,7.612311722582059,1.0,465,465,335,335
2024-08-05 22:45:49,1010,1487,988,1500,True,ANGLE,-1.1807680064089832,-18.60241081999668,7.612311722582059,1.0,465,465,335,335
2024-08-05 22:45:49,1010,1487,988,1500,True,ANGLE,-1.1807680064089832,-18.60241081999668,7.612311722582059,1.0,465,465,335,335
2024-08-05 22:45:49,1010,1487,988,1500,True,ANGLE,-1.1807680064089832,-18.60241081999668,7.612311722582059,1.0,465,465,335,335
2024-08-05 22:45:49,1010,1487,988,1500,True,ANGLE,-1.1807680064089832,-18.60241081999668,7.612311722582059,1.0,465,465,335,335
2024-08-05 22:45:49,1010,1487,988,1500,True,ANGLE,-1.1807680064089832,-18.60241081999668,7.612311722582059,1.0,465,465,335,335
2024-08-05 22:45:49,1010,1486,988,1500,True,ANGLE,-1.1807680064089832,-18.60241081999668,7.612311722582059,1.0,465,465,335,335
2024-08-05 22:45:49,1009,1486,988,1500,True,ANGLE,-1.1807680064089832,-18.60241081999668,7.612311722582059,1.0,465,465,335,335
2024-08-05 22:45:49,1009,1486,988,1500,True,ANGLE,-1.1807680064089832,-18.60241081999668,7.612311722582059,1.0,465,465,335,335
2024-08-05 22:45:49,1002,1486,988,1500,True,ANGLE,-1.1807680064089832,-18.60241081999668,7.612311722582059,1.0,467,467,333,333
2024-08-05 22:45:49,1002,1486,988,1500,True,ANGLE,-1.1807680064089832,-18.60241081999668,7.612311722582059,1.0,467,467,333,333
2024-08-05 22:45:49,1002,1486,988,1500,True,ANGLE,-1.1807680064089832,-18.60241081999668,7.612311722582059,1.0,467,467,333,333
2024-08-05 22:45:49,1002,1485,988,1500,True,ANGLE,-1.1807680064089832,-18.60241081999668,7.612311722582059,1.0,467,467,333,333
2024-08-05 22:45:49,1002,1485,988,1500,True,ANGLE,-1.1807680064089832,-18.60241081999668,7.612311722582059,1.0,467,467,333,333
2024-08-05 22:45:49,1002,1485,988,1500,True,ANGLE,-1.1807680064089832,-18.60241081999668,7.612311722582059,1.0,467,467,333,333
2024-08-05 22:45:49,1002,1485,988,1500,True,ANGLE,-1.1807680064089832,-18.60241081999668,7.612311722582059,1.0,467,467,333,333
2024-08-05 22:45:49,1002,1485,988,1500,True,ANGLE,-1.1807680064089832,-18.60241081999668,7.612311722582059,1.0,467,467,333,333
2024-08-05 22:45:49,1002,1485,988,1500,True,ANGLE,-1.1807680064089832,-18.60241081999668,7.612311722582059,1.0,467,467,333,333
2024-08-05 22:45:49,1002,1483,988,1500,True,ANGLE,-1.1807680064089832,-18.60241081999668,7.612311722582059,1.0,467,467,333,333
2024-08-05 22:45:49,1002,1483,988,1500,True,ANGLE,-1.1807680064089832,-18.60241081999668,7.612311722582059,1.0,467,467,333,333
2024-08-05 22:45:49,1002,1483,988,1500,True,ANGLE,-1.1807680064089832,-18.60241081999668,7.612311722582059,1.0,467,467,333,333
2024-08-05 22:45:49,1002,1483,988,1500,True,ANGLE,-1.1807680064089832,-18.60241081999668,7.612311722582059,1.0,467,467,333,333
2024-08-05 22:45:49,1011,1483,988,1500,True,ANGLE,-1.1807680064089832,-18.60241081999668,7.612311722582059,1.0,465,465,335,335
2024-08-05 22:45:49,1011,1483,988,1500,True,ANGLE,-1.1807680064089832,-18.60241081999668,7.612311722582059,1.0,465,465,335,335
2024-08-05 22:45:49,1011,1483,988,1500,True,ANGLE,-1.1807680064089832,-18.60241081999668,7.612311722582059,1.0,465,465,335,335
2024-08-05 22:45:49,1027,1491,988,1500,True,ANGLE,-1.1807680064089832,-18.60241081999668,7.612311722582059,1.0,462,462,338,338
2024-08-05 22:45:49,1027,1491,988,1500,True,ANGLE,-1.1807680064089832,-18.60241081999668,7.612311722582059,1.0,462,462,338,338
2024-08-05 22:45:49,1027,1491,988,1500,True,ANGLE,-1.1807680064089832,-18.60241081999668,7.612311722582059,1.0,462,462,338,338
2024-08-05 22:45:49,1051,1492,988,1500,True,ANGLE,-1.1807680064089832,-18.60241081999668,7.612311722582059,1.0,457,457,343,343
2024-08-05 22:45:49,1075,1498,988,1500,True,ANGLE,-1.1807680064089832,-18.60241081999668,7.612311722582059,1.0,453,453,347,347
2024-08-05 22:45:49,1075,1498,988,1500,True,ANGLE,-1.1807680064089832,-18.60241081999668,7.612311722582059,1.0,453,453,347,347
2024-08-05 22:45:49,1075,1498,988,1500,True,ANGLE,-1.1807680064089832,-18.60241081999668,7.612311722582059,1.0,453,453,347,347
2024-08-05 22:45:49,1075,1498,988,1500,True,ANGLE,-1.1807680064089832,-18.60241081999668,7.612311722582059,1.0,453,453,347,347
2024-08-05 22:45:49,1111,1500,988,1500,True,ANGLE,-1.1807680064089832,-18.60241081999668,7.612311722582059,1.0,446,446,354,354
2024-08-05 22:45:49,1137,1500,988,1500,True,ANGLE,-1.1807680064089832,-18.60241081999668,7.612311722582059,1.0,442,442,358,358
2024-08-05 22:45:49,1137,1500,988,1500,True,ANGLE,-1.1807680064089832,-18.60241081999668,7.612311722582059,1.0,442,442,358,358
2024-08-05 22:45:49,1174,1500,988,1500,True,ANGLE,-1.1807680064089832,-18.60241081999668,7.612311722582059,1.0,436,436,364,364
2024-08-05 22:45:49,1174,1500,988,1500,True,ANGLE,-1.1807680064089832,-18.60241081999668,7.612311722582059,1.0,436,436,364,364
2024-08-05 22:45:49,1174,1500,988,1500,True,ANGLE,-1.1807680064089832,-18.60241081999668,7.612311722582059,1.0,436,436,364,364
2024-08-05 22:45:49,1230,1500,988,1500,True,ANGLE,-1.1807680064089832,-18.60241081999668,7.612311722582059,1.0,428,428,372,372
2024-08-05 22:45:49,1295,1500,988,1500,True,ANGLE,-1.1807680064089832,-18.60241081999668,7.612311722582059,1.0,420,420,380,380
2024-08-05 22:45:49,1295,1500,988,1500,True,ANGLE,-1.1807680064089832,-18.60241081999668,7.612311722582059,1.0,420,420,380,380
2024-08-05 22:45:49,1295,1500,988,1500,True,ANGLE,-1.1807680064089832,-18.60241081999668,7.612311722582059,1.0,420,420,380,380
2024-08-05 22:45:49,1350,1500,988,1500,True,ANGLE,-1.1807680064089832,-18.60241081999668,7.612311722582059,1.0,415,415,385,385
2024-08-05 22:45:49,1401,1500,988,1500,True,ANGLE,-1.1807680064089832,-18.60241081999668,7.612311722582059,1.0,410,410,390,390
2024-08-05 22:45:49,1401,1500,988,1500,True,ANGLE,-1.1807680064089832,-18.60241081999668,7.612311722582059,1.0,410,410,390,390
2024-08-05 22:45:49,1451,1500,988,1500,True,ANGLE,-1.1807680064089832,-18.60241081999668,7.612311722582059,1.0,407,407,393,393
2024-08-05 22:45:49,1451,1500,988,1500,True,ANGLE,-1.1807680064089832,-18.60241081999668,7.612311722582059,1.0,407,407,393,393
2024-08-05 22:45:49,1451,1500,988,1500,True,ANGLE,-1.1807680064089832,-18.60241081999668,7.612311722582059,1.0,407,407,393,393
2024-08-05 22:45:49,1487,1500,988,1500,True,ANGLE,-1.1807680064089832,-18.60241081999668,7.612311722582059,1.0,404,404,396,396
2024-08-05 22:45:49,1500,1500,988,1500,True,ANGLE,-1.1807680064089832,-18.60241081999668,7.612311722582059,1.0,404,404,396,396
2024-08-05 22:45:49,1500,1500,988,1500,True,ANGLE,-1.1807680064089832,-18.60241081999668,7.612311722582059,1.0,404,404,396,396
2024-08-05 22:45:49,1500,1500,988,1500,True,ANGLE,-1.1807680064089832,-18.60241081999668,7.612311722582059,1.0,404,404,396,396
2024-08-05 22:45:49,1500,1500,988,1500,True,ANGLE,-1.1807680064089832,-18.60241081999668,7.612311722582059,1.0,404,404,396,396
2024-08-05 22:45:49,1500,1500,988,1500,True,ANGLE,-1.1807680064089832,-18.60241081999668,7.612311722582059,1.0,404,404,396,396
2024-08-05 22:45:49,1500,1500,988,1500,True,ANGLE,-1.1807680064089832,-18.60241081999668,7.612311722582059,1.0,404,404,396,396
2024-08-05 22:45:49,1500,1500,988,1500,True,ANGLE,-1.1807680064089832,-18.60241081999668,7.612311722582059,1.0,404,404,396,396
2024-08-05 22:45:49,1500,1500,988,1500,True,ANGLE,-1.1807680064089832,-18.60241081999668,7.612311722582059,1.0,404,404,396,396
2024-08-05 22:45:50,1500,1500,988,1500,True,ANGLE,-1.1807680064089832,-18.60241081999668,7.612311722582059,1.0,404,404,396,396
2024-08-05 22:45:50,1500,1500,988,1500,True,ANGLE,-1.1807680064089832,-18.60241081999668,7.612311722582059,1.0,404,404,396,396
2024-08-05 22:45:50,1500,1500,988,1500,True,ANGLE,-1.1807680064089832,-18.60241081999668,7.612311722582059,1.0,404,404,396,396
2024-08-05 22:45:50,1500,1500,988,1500,True,ANGLE,-1.1807680064089832,-18.60241081999668,7.612311722582059,1.0,404,404,396,396
2024-08-05 22:45:50,1500,1500,988,1500,True,ANGLE,-1.1807680064089832,-18.60241081999668,7.612311722582059,1.0,404,404,396,396
2024-08-05 22:45:50,1500,1500,988,1500,True,ANGLE,-1.1807680064089832,-18.60241081999668,7.612311722582059,1.0,404,404,396,396
2024-08-05 22:45:50,1500,1500,988,1500,True,ANGLE,-1.1807680064089832,-18.60241081999668,7.612311722582059,1.0,404,404,396,396
2024-08-05 22:45:50,1500,1500,988,1500,True,ANGLE,-1.1807680064089832,-18.60241081999668,7.612311722582059,1.0,404,404,396,396
2024-08-05 22:45:50,1500,1500,988,1500,True,ANGLE,-1.1807680064089832,-18.60241081999668,7.612311722582059,1.0,404,404,396,396
2024-08-05 22:45:50,1500,1500,988,1500,True,ANGLE,-1.1807680064089832,-18.60241081999668,7.612311722582059,1.0,404,404,396,396
2024-08-05 22:45:50,1500,1500,988,1500,True,ANGLE,-1.1807680064089832,-18.60241081999668,7.612311722582059,1.0,404,404,396,396
2024-08-05 22:45:50,1500,1500,988,1500,True,ANGLE,-1.1807680064089832,-18.60241081999668,7.612311722582059,1.0,404,404,396,396
2024-08-05 22:45:50,1500,1500,988,1500,True,ANGLE,-1.1807680064089832,-18.60241081999668,7.612311722582059,1.0,404,404,396,396
2024-08-05 22:45:50,1500,1500,988,1500,True,ANGLE,-1.1807680064089832,-18.60241081999668,7.612311722582059,1.0,404,404,396,396
2024-08-05 22:45:50,1500,1500,988,1500,True,ANGLE,-1.1807680064089832,-18.60241081999668,7.612311722582059,1.0,404,404,396,396
2024-08-05 22:45:50,1513,1500,988,1500,True,ANGLE,-1.1807680064089832,-18.60241081999668,7.612311722582059,1.0,403,403,397,397
2024-08-05 22:45:50,1513,1500,988,1500,True,ANGLE,-1.1807680064089832,-18.60241081999668,7.612311722582059,1.0,403,403,397,397
2024-08-05 22:45:50,1562,1500,988,1500,True,ANGLE,-1.1807680064089832,-18.60241081999668,7.612311722582059,1.0,401,401,399,399
2024-08-05 22:45:50,1562,1500,988,1500,True,ANGLE,-1.1807680064089832,-18.60241081999668,7.612311722582059,1.0,401,401,399,399
2024-08-05 22:45:50,1562,1500,988,1500,True,ANGLE,-1.1807680064089832,-18.60241081999668,7.612311722582059,1.0,401,401,399,399
2024-08-05 22:45:50,1605,1500,988,1500,True,ANGLE,-1.1807680064089832,-18.60241081999668,7.612311722582059,1.0,400,400,400,400
2024-08-05 22:45:50,1650,1500,988,1500,True,ANGLE,-1.1807680064089832,-18.60241081999668,7.612311722582059,1.0,400,400,400,400
2024-08-05 22:45:50,1650,1500,988,1500,True,ANGLE,-1.1807680064089832,-18.60241081999668,7.612311722582059,1.0,400,400,400,400
2024-08-05 22:45:50,1650,1500,988,1500,True,ANGLE,-1.1807680064089832,-18.60241081999668,7.612311722582059,1.0,400,400,400,400
2024-08-05 22:45:50,1698,1500,988,1500,True,ANGLE,-1.1807680064089832,-18.60241081999668,7.612311722582059,1.0,400,400,400,400
2024-08-05 22:45:50,1745,1500,988,1500,True,ANGLE,-1.1807680064089832,-18.60241081999668,7.612311722582059,1.0,399,399,401,401
2024-08-05 22:45:50,1745,1500,988,1500,True,ANGLE,-1.1807680064089832,-18.60241081999668,7.612311722582059,1.0,399,399,401,401
2024-08-05 22:45:50,1790,1500,988,1500,True,ANGLE,-1.1807680064089832,-18.60241081999668,7.612311722582059,1.0,397,397,403,403
2024-08-05 22:45:50,1790,1500,988,1500,True,ANGLE,-1.1807680064089832,-18.60241081999668,7.612311722582059,1.0,397,397,403,403
2024-08-05 22:45:50,1790,1500,988,1500,True,ANGLE,-1.1807680064089832,-18.60241081999668,7.612311722582059,1.0,397,397,403,403
2024-08-05 22:45:50,1832,1500,988,1500,True,ANGLE,-1.1807680064089832,-18.60241081999668,7.612311722582059,1.0,395,395,405,405
2024-08-05 22:45:50,1868,1500,988,1500,True,ANGLE,-1.1807680064089832,-18.60241081999668,7.612311722582059,1.0,393,393,407,407
2024-08-05 22:45:50,1868,1500,988,1500,True,ANGLE,-1.1807680064089832,-18.60241081999668,7.612311722582059,1.0,393,393,407,407
2024-08-05 22:45:50,1900,1500,988,1500,True,ANGLE,-1.1807680064089832,-18.60241081999668,7.612311722582059,1.0,391,391,409,409
2024-08-05 22:45:50,1900,1500,988,1500,True,ANGLE,-1.1807680064089832,-18.60241081999668,7.612311722582059,1.0,391,391,409,409
2024-08-05 22:45:50,1900,1500,988,1500,True,ANGLE,-1.1807680064089832,-18.60241081999668,7.612311722582059,1.0,391,391,409,409
2024-08-05 22:45:50,1926,1500,988,1500,True,ANGLE,-1.1807680064089832,-18.60241081999668,7.612311722582059,1.0,389,389,411,411
2024-08-05 22:45:50,1926,1500,988,1500,True,ANGLE,-1.1807680064089832,-18.60241081999668,7.612311722582059,1.0,389,389,411,411
2024-08-05 22:45:50,1956,1500,988,1500,True,ANGLE,-1.1807680064089832,-18.60241081999668,7.612311722582059,1.0,386,386,414,414
2024-08-05 22:45:50,1956,1500,988,1500,True,ANGLE,-1.1807680064089832,-18.60241081999668,7.612311722582059,1.0,386,386,414,414
2024-08-05 22:45:50,1956,1500,988,1500,True,ANGLE,-1.1807680064089832,-18.60241081999668,7.612311722582059,1.0,386,386,414,414
2024-08-05 22:45:50,1976,1500,988,1500,True,ANGLE,-1.1807680064089832,-18.60241081999668,7.612311722582059,1.0,384,384,416,416
2024-08-05 22:45:50,1986,1500,988,1500,True,ANGLE,-1.1807680064089832,-18.60241081999668,7.612311722582059,1.0,383,383,417,417
2024-08-05 22:45:50,1986,1500,988,1500,True,ANGLE,-1.1807680064089832,-18.60241081999668,7.612311722582059,1.0,383,383,417,417
2024-08-05 22:45:50,2000,1500,988,1500,True,ANGLE,-1.1807680064089832,-18.60241081999668,7.612311722582059,1.0,382,382,418,418
2024-08-05 22:45:50,2000,1500,988,1500,True,ANGLE,-1.1807680064089832,-18.60241081999668,7.612311722582059,1.0,382,382,418,418
2024-08-05 22:45:50,2000,1500,988,1500,True,ANGLE,-1.1807680064089832,-18.60241081999668,7.612311722582059,1.0,382,382,418,418
2024-08-05 22:45:50,2006,1500,988,1500,True,ANGLE,-1.1807680064089832,-18.60241081999668,7.612311722582059,1.0,381,381,419,419
2024-08-05 22:45:50,2006,1500,988,1500,True,ANGLE,-1.1807680064089832,-18.60241081999668,7.612311722582059,1.0,381,381,419,419
2024-08-05 22:45:50,2006,1500,988,1500,True,ANGLE,-1.1807680064089832,-18.60241081999668,7.612311722582059,1.0,381,381,419,419
2024-08-05 22:45:50,2006,1500,988,1500,True,ANGLE,-1.1807680064089832,-18.60241081999668,7.612311722582059,1.0,381,381,419,419
2024-08-05 22:45:50,2006,1500,988,1500,True,ANGLE,-1.1807680064089832,-18.60241081999668,7.612311722582059,1.0,381,381,419,419
2024-08-05 22:45:50,2006,1500,988,1500,True,ANGLE,-1.1807680064089832,-18.60241081999668,7.612311722582059,1.0,381,381,419,419
2024-08-05 22:45:50,2005,1500,988,1500,True,ANGLE,-1.1807680064089832,-18.60241081999668,7.612311722582059,1.0,381,381,419,419
2024-08-05 22:45:50,2006,1500,988,1500,True,ANGLE,-1.1807680064089832,-18.60241081999668,7.612311722582059,1.0,381,381,419,419
2024-08-05 22:45:50,2006,1500,988,1500,True,ANGLE,-1.1807680064089832,-18.60241081999668,7.612311722582059,1.0,381,381,419,419
2024-08-05 22:45:50,2006,1500,988,1500,True,ANGLE,-1.1807680064089832,-18.60241081999668,7.612311722582059,1.0,381,381,419,419
2024-08-05 22:45:50,2006,1500,988,1500,True,ANGLE,-1.1807680064089832,-18.60241081999668,7.612311722582059,1.0,381,381,419,419
2024-08-05 22:45:50,2006,1500,988,1500,True,ANGLE,-1.1807680064089832,-18.60241081999668,7.612311722582059,1.0,381,381,419,419
2024-08-05 22:45:50,2006,1500,988,1500,True,ANGLE,-1.1807680064089832,-18.60241081999668,7.612311722582059,1.0,381,381,419,419
2024-08-05 22:45:50,2005,1500,988,1500,True,ANGLE,-1.1807680064089832,-18.60241081999668,7.612311722582059,1.0,381,381,419,419
2024-08-05 22:45:50,2005,1500,988,1500,True,ANGLE,-1.1807680064089832,-18.60241081999668,7.612311722582059,1.0,381,381,419,419
2024-08-05 22:45:50,2005,1500,988,1500,True,ANGLE,-1.1807680064089832,-18.60241081999668,7.612311722582059,1.0,381,381,419,419
2024-08-05 22:45:50,2006,1500,988,1500,True,ANGLE,-1.1807680064089832,-18.60241081999668,7.612311722582059,1.0,381,381,419,419
2024-08-05 22:45:50,2005,1500,988,1500,True,ANGLE,-1.1807680064089832,-18.60241081999668,7.612311722582059,1.0,381,381,419,419
2024-08-05 22:45:50,2005,1500,988,1500,True,ANGLE,-1.1807680064089832,-18.60241081999668,7.612311722582059,1.0,381,381,419,419
2024-08-05 22:45:50,2005,1500,988,1500,True,ANGLE,-1.1807680064089832,-18.60241081999668,7.612311722582059,1.0,381,381,419,419
2024-08-05 22:45:50,2005,1500,988,1500,True,ANGLE,-1.1807680064089832,-18.60241081999668,7.612311722582059,1.0,381,381,419,419
2024-08-05 22:45:50,2005,1500,988,1500,True,ANGLE,-1.1807680064089832,-18.60241081999668,7.612311722582059,1.0,381,381,419,419
2024-08-05 22:45:50,2006,1500,988,1500,True,ANGLE,-1.1807680064089832,-18.60241081999668,7.612311722582059,1.0,381,381,419,419
2024-08-05 22:45:50,2006,1500,988,1500,True,ANGLE,-1.1807680064089832,-18.60241081999668,7.612311722582059,1.0,381,381,419,419
2024-08-05 22:45:50,2006,1500,988,1500,True,ANGLE,-1.1807680064089832,-18.60241081999668,7.612311722582059,1.0,381,381,419,419
2024-08-05 22:45:50,2006,1500,988,1500,True,ANGLE,-1.1807680064089832,-18.60241081999668,7.612311722582059,1.0,381,381,419,419
2024-08-05 22:45:50,2006,1500,988,1500,True,ANGLE,-1.1807680064089832,-18.60241081999668,7.612311722582059,1.0,381,381,419,419
2024-08-05 22:45:50,2006,1500,988,1500,True,ANGLE,-1.1807680064089832,-18.60241081999668,7.612311722582059,1.0,381,381,419,419
2024-08-05 22:45:50,2006,1500,988,1500,True,ANGLE,-1.1807680064089832,-18.60241081999668,7.612311722582059,1.0,381,381,419,419
2024-08-05 22:45:50,2006,1500,988,1500,True,ANGLE,-1.1807680064089832,-18.60241081999668,7.612311722582059,1.0,381,381,419,419
2024-08-05 22:45:50,2006,1500,988,1500,True,ANGLE,-1.1807680064089832,-18.60241081999668,7.612311722582059,1.0,381,381,419,419
2024-08-05 22:45:50,2006,1500,988,1500,True,ANGLE,-1.1807680064089832,-18.60241081999668,7.612311722582059,1.0,381,381,419,419
2024-08-05 22:45:50,2006,1500,988,1500,True,ANGLE,-1.1807680064089832,-18.60241081999668,7.612311722582059,1.0,381,381,419,419
2024-08-05 22:45:50,2006,1500,988,1500,True,ANGLE,-1.1807680064089832,-18.60241081999668,7.612311722582059,1.0,381,381,419,419
2024-08-05 22:45:50,2006,1500,988,1500,True,ANGLE,-1.1807680064089832,-18.60241081999668,7.612311722582059,1.0,381,381,419,419
2024-08-05 22:45:50,2006,1500,988,1500,True,ANGLE,-1.1807680064089832,-18.60241081999668,7.612311722582059,1.0,381,381,419,419
2024-08-05 22:45:50,2006,1500,988,1500,True,ANGLE,-1.1807680064089832,-18.60241081999668,7.612311722582059,1.0,381,381,419,419
2024-08-05 22:45:50,2006,1500,988,1500,True,ANGLE,-1.1807680064089832,-18.60241081999668,7.612311722582059,1.0,381,381,419,419
2024-08-05 22:45:50,2006,1500,988,1500,True,ANGLE,-1.1807680064089832,-18.60241081999668,7.612311722582059,1.0,381,381,419,419
2024-08-05 22:45:50,2006,1500,988,1500,True,ANGLE,-1.1807680064089832,-18.60241081999668,7.612311722582059,1.0,381,381,419,419
2024-08-05 22:45:50,2006,1500,988,1500,True,ANGLE,-1.1807680064089832,-18.60241081999668,7.612311722582059,1.0,381,381,419,419
2024-08-05 22:45:50,2006,1500,988,1500,True,ANGLE,-1.1807680064089832,-18.60241081999668,7.612311722582059,1.0,381,381,419,419
2024-08-05 22:45:50,2006,1500,988,1500,True,ANGLE,-1.1807680064089832,-18.60241081999668,7.612311722582059,1.0,381,381,419,419
2024-08-05 22:45:50,2006,1500,988,1500,True,ANGLE,-1.1807680064089832,-18.60241081999668,7.612311722582059,1.0,381,381,419,419
2024-08-05 22:45:50,2006,1500,988,1500,True,ANGLE,-1.1807680064089832,-18.60241081999668,7.612311722582059,1.0,381,381,419,419
2024-08-05 22:45:50,2006,1500,988,1500,True,ANGLE,-1.1807680064089832,-18.60241081999668,7.612311722582059,1.0,381,381,419,419
2024-08-05 22:45:50,2005,1500,988,1500,True,ANGLE,-1.1807680064089832,-18.60241081999668,7.612311722582059,1.0,381,381,419,419
2024-08-05 22:45:50,2005,1500,988,1500,True,ANGLE,-1.1807680064089832,-18.60241081999668,7.612311722582059,1.0,381,381,419,419
2024-08-05 22:45:50,2005,1500,988,1500,True,ANGLE,-1.1807680064089832,-18.60241081999668,7.612311722582059,1.0,381,381,419,419
2024-08-05 22:45:50,2005,1500,988,1500,True,ANGLE,-1.1807680064089832,-18.60241081999668,7.612311722582059,1.0,381,381,419,419
2024-08-05 22:45:50,2005,1500,988,1500,True,ANGLE,-1.1807680064089832,-18.60241081999668,7.612311722582059,1.0,381,381,419,419
2024-08-05 22:45:50,2005,1500,988,1500,True,ANGLE,-1.1807680064089832,-18.60241081999668,7.612311722582059,1.0,381,381,419,419
2024-08-05 22:45:50,2005,1500,988,1500,True,ANGLE,-1.1807680064089832,-18.60241081999668,7.612311722582059,1.0,381,381,419,419
2024-08-05 22:45:51,2005,1500,988,1500,True,ANGLE,-1.1807680064089832,-18.60241081999668,7.612311722582059,1.0,381,381,419,419
2024-08-05 22:45:51,2005,1500,988,1500,True,ANGLE,-1.1807680064089832,-18.60241081999668,7.612311722582059,1.0,381,381,419,419
2024-08-05 22:45:51,2005,1500,988,1500,True,ANGLE,-1.1807680064089832,-18.60241081999668,7.612311722582059,1.0,381,381,419,419
2024-08-05 22:45:51,2005,1500,988,1500,True,ANGLE,-1.1807680064089832,-18.60241081999668,7.612311722582059,1.0,381,381,419,419
2024-08-05 22:45:51,2005,1500,988,1500,True,ANGLE,-1.1807680064089832,-18.60241081999668,7.612311722582059,1.0,381,381,419,419
2024-08-05 22:45:51,2005,1500,988,1500,True,ANGLE,-1.1807680064089832,-18.60241081999668,7.612311722582059,1.0,381,381,419,419
2024-08-05 22:45:51,2005,1500,988,1500,True,ANGLE,-1.1807680064089832,-18.60241081999668,7.612311722582059,1.0,381,381,419,419
2024-08-05 22:45:51,2005,1500,988,1500,True,ANGLE,-1.1807680064089832,-18.60241081999668,7.612311722582059,1.0,381,381,419,419
2024-08-05 22:45:51,1996,1500,988,1500,True,ANGLE,-1.1807680064089832,-18.60241081999668,7.612311722582059,1.0,382,382,418,418
2024-08-05 22:45:51,1996,1500,988,1500,True,ANGLE,-1.1807680064089832,-18.60241081999668,7.612311722582059,1.0,382,382,418,418
2024-08-05 22:45:51,1996,1500,988,1500,True,ANGLE,-1.1807680064089832,-18.60241081999668,7.612311722582059,1.0,382,382,418,418
2024-08-05 22:45:51,1996,1500,988,1500,True,ANGLE,-1.1807680064089832,-18.60241081999668,7.612311722582059,1.0,382,382,418,418
2024-08-05 22:45:51,1996,1500,988,1500,True,ANGLE,-1.1807680064089832,-18.60241081999668,7.612311722582059,1.0,382,382,418,418
2024-08-05 22:45:51,1895,1500,988,1500,True,ANGLE,-1.1807680064089832,-18.60241081999668,7.612311722582059,1.0,391,391,409,409
2024-08-05 22:45:51,1818,1500,988,1500,True,ANGLE,-1.1807680064089832,-18.60241081999668,7.612311722582059,1.0,396,396,404,404
2024-08-05 22:45:51,1818,1500,988,1500,True,ANGLE,-1.1807680064089832,-18.60241081999668,7.612311722582059,1.0,396,396,404,404
2024-08-05 22:45:51,1740,1500,988,1500,True,ANGLE,-1.1807680064089832,-18.60241081999668,7.612311722582059,1.0,399,399,401,401
2024-08-05 22:45:51,1740,1500,988,1500,True,ANGLE,-1.1807680064089832,-18.60241081999668,7.612311722582059,1.0,399,399,401,401
2024-08-05 22:45:51,1740,1500,988,1500,True,ANGLE,-1.1807680064089832,-18.60241081999668,7.612311722582059,1.0,399,399,401,401
2024-08-05 22:45:51,1642,1500,988,1500,True,ANGLE,-1.1807680064089832,-18.60241081999668,7.612311722582059,1.0,400,400,400,400
2024-08-05 22:45:51,1532,1500,988,1500,True,ANGLE,-1.1807680064089832,-18.60241081999668,7.612311722582059,1.0,402,402,398,398
2024-08-05 22:45:51,1532,1500,988,1500,True,ANGLE,-1.1807680064089832,-18.60241081999668,7.612311722582059,1.0,402,402,398,398
2024-08-05 22:45:51,1532,1500,988,1500,True,ANGLE,-1.1807680064089832,-18.60241081999668,7.612311722582059,1.0,402,402,398,398
2024-08-05 22:45:51,1491,1500,988,1500,True,ANGLE,-1.1807680064089832,-18.60241081999668,7.612311722582059,1.0,404,404,396,396
2024-08-05 22:45:51,1491,1500,988,1500,True,ANGLE,-1.1807680064089832,-18.60241081999668,7.612311722582059,1.0,404,404,396,396
2024-08-05 22:45:51,1491,1500,988,1500,True,ANGLE,-1.1807680064089832,-18.60241081999668,7.612311722582059,1.0,404,404,396,396
2024-08-05 22:45:51,1492,1500,988,1500,True,ANGLE,-1.1807680064089832,-18.60241081999668,7.612311722582059,1.0,404,404,396,396
2024-08-05 22:45:51,1492,1500,988,1500,True,ANGLE,-1.1807680064089832,-18.60241081999668,7.612311722582059,1.0,404,404,396,396
2024-08-05 22:45:51,1492,1500,988,1500,True,ANGLE,-1.1807680064089832,-18.60241081999668,7.612311722582059,1.0,404,404,396,396
2024-08-05 22:45:51,1492,1500,988,1500,True,ANGLE,-1.1807680064089832,-18.60241081999668,7.612311722582059,1.0,404,404,396,396
2024-08-05 22:45:51,1492,1500,988,1500,True,ANGLE,-1.1807680064089832,-18.60241081999668,7.612311722582059,1.0,404,404,396,396
2024-08-05 22:45:51,1492,1500,988,1500,True,ANGLE,-1.1807680064089832,-18.60241081999668,7.612311722582059,1.0,404,404,396,396
2024-08-05 22:45:51,1492,1500,988,1500,True,ANGLE,-1.1807680064089832,-18.60241081999668,7.612311722582059,1.0,404,404,396,396
2024-08-05 22:45:51,1492,1500,988,1500,True,ANGLE,-1.1807680064089832,-18.60241081999668,7.612311722582059,1.0,404,404,396,396
2024-08-05 22:45:51,1500,1527,988,1500,True,ANGLE,-1.1807680064089832,-18.60241081999668,7.612311722582059,1.0,404,404,396,396
2024-08-05 22:45:51,1500,1527,988,1500,True,ANGLE,-1.1807680064089832,-18.60241081999668,7.612311722582059,1.0,404,404,396,396
2024-08-05 22:45:51,1500,1565,988,1500,True,ANGLE,-1.1807680064089832,-18.60241081999668,7.612311722582059,1.0,405,403,397,395
2024-08-05 22:45:51,1500,1610,988,1500,True,ANGLE,-1.1807680064089832,-18.60241081999668,7.612311722582059,1.0,407,401,399,393
2024-08-05 22:45:51,1500,1610,988,1500,True,ANGLE,-1.1807680064089832,-18.60241081999668,7.612311722582059,1.0,407,401,399,393
2024-08-05 22:45:51,1500,1610,988,1500,True,ANGLE,-1.1807680064089832,-18.60241081999668,7.612311722582059,1.0,407,401,399,393
2024-08-05 22:45:51,1500,1655,988,1500,True,ANGLE,-1.1807680064089832,-18.60241081999668,7.612311722582059,1.0,409,399,401,391
2024-08-05 22:45:51,1500,1696,988,1500,True,ANGLE,-1.1807680064089832,-18.60241081999668,7.612311722582059,1.0,412,396,404,388
2024-08-05 22:45:51,1500,1696,988,1500,True,ANGLE,-1.1807680064089832,-18.60241081999668,7.612311722582059,1.0,412,396,404,388
2024-08-05 22:45:51,1500,1740,988,1500,True,ANGLE,-1.1807680064089832,-18.60241081999668,7.612311722582059,1.0,415,393,407,385
2024-08-05 22:45:51,1500,1740,988,1500,True,ANGLE,-1.1807680064089832,-18.60241081999668,7.612311722582059,1.0,415,393,407,385
2024-08-05 22:45:51,1500,1740,988,1500,True,ANGLE,-1.1807680064089832,-18.60241081999668,7.612311722582059,1.0,415,393,407,385
2024-08-05 22:45:51,1500,1787,988,1500,True,ANGLE,-1.1807680064089832,-18.60241081999668,7.612311722582059,1.0,419,389,411,381
2024-08-05 22:45:51,1500,1787,988,1500,True,ANGLE,-1.1807680064089832,-18.60241081999668,7.612311722582059,1.0,419,389,411,381
2024-08-05 22:45:51,1500,1828,988,1500,True,ANGLE,-1.1807680064089832,-18.60241081999668,7.612311722582059,1.0,423,385,415,377
2024-08-05 22:45:51,1500,1865,988,1500,True,ANGLE,-1.1807680064089832,-18.60241081999668,7.612311722582059,1.0,428,380,420,372
2024-08-05 22:45:51,1500,1865,988,1500,True,ANGLE,-1.1807680064089832,-18.60241081999668,7.612311722582059,1.0,428,380,420,372
2024-08-05 22:45:51,1500,1865,988,1500,True,ANGLE,-1.1807680064089832,-18.60241081999668,7.612311722582059,1.0,428,380,420,372
2024-08-05 22:45:51,1500,1893,988,1500,True,ANGLE,-1.1807680064089832,-18.60241081999668,7.612311722582059,1.0,431,377,423,369
2024-08-05 22:45:51,1500,1916,988,1500,True,ANGLE,-1.1807680064089832,-18.60241081999668,7.612311722582059,1.0,434,374,426,366
2024-08-05 22:45:51,1500,1916,988,1500,True,ANGLE,-1.1807680064089832,-18.60241081999668,7.612311722582059,1.0,434,374,426,366
2024-08-05 22:45:51,1500,1916,988,1500,True,ANGLE,-1.1807680064089832,-18.60241081999668,7.612311722582059,1.0,434,374,426,366
2024-08-05 22:45:51,1500,1940,988,1500,True,ANGLE,-1.1807680064089832,-18.60241081999668,7.612311722582059,1.0,438,370,430,362
2024-08-05 22:45:51,1500,1940,988,1500,True,ANGLE,-1.1807680064089832,-18.60241081999668,7.612311722582059,1.0,438,370,430,362
2024-08-05 22:45:51,1500,1961,988,1500,True,ANGLE,-1.1807680064089832,-18.60241081999668,7.612311722582059,1.0,441,367,433,359
2024-08-05 22:45:51,1500,1977,988,1500,True,ANGLE,-1.1807680064089832,-18.60241081999668,7.612311722582059,1.0,443,365,435,357
2024-08-05 22:45:51,1500,1977,988,1500,True,ANGLE,-1.1807680064089832,-18.60241081999668,7.612311722582059,1.0,443,365,435,357
2024-08-05 22:45:51,1500,1977,988,1500,True,ANGLE,-1.1807680064089832,-18.60241081999668,7.612311722582059,1.0,443,365,435,357
2024-08-05 22:45:51,1500,1985,988,1500,True,ANGLE,-1.1807680064089832,-18.60241081999668,7.612311722582059,1.0,444,364,436,356
2024-08-05 22:45:51,1500,1985,988,1500,True,ANGLE,-1.1807680064089832,-18.60241081999668,7.612311722582059,1.0,444,364,436,356
2024-08-05 22:45:51,1500,1985,988,1500,True,ANGLE,-1.1807680064089832,-18.60241081999668,7.612311722582059,1.0,444,364,436,356
2024-08-05 22:45:51,1500,2005,988,1500,True,ANGLE,-1.1807680064089832,-18.60241081999668,7.612311722582059,1.0,448,360,440,352
2024-08-05 22:45:51,1500,2011,988,1500,True,ANGLE,-1.1807680064089832,-18.60241081999668,7.612311722582059,1.0,449,359,441,351
2024-08-05 22:45:51,1500,2011,988,1500,True,ANGLE,-1.1807680064089832,-18.60241081999668,7.612311722582059,1.0,449,359,441,351
2024-08-05 22:45:51,1500,2011,988,1500,True,ANGLE,-1.1807680064089832,-18.60241081999668,7.612311722582059,1.0,449,359,441,351
2024-08-05 22:45:51,1500,2011,988,1500,True,ANGLE,-1.1807680064089832,-18.60241081999668,7.612311722582059,1.0,449,359,441,351
2024-08-05 22:45:51,1500,2011,988,1500,True,ANGLE,-1.1807680064089832,-18.60241081999668,7.612311722582059,1.0,449,359,441,351
2024-08-05 22:45:51,1500,2011,988,1500,True,ANGLE,-1.1807680064089832,-18.60241081999668,7.612311722582059,1.0,449,359,441,351
2024-08-05 22:45:51,1500,2011,988,1500,True,ANGLE,-1.1807680064089832,-18.60241081999668,7.612311722582059,1.0,449,359,441,351
2024-08-05 22:45:51,1500,2011,988,1500,True,ANGLE,-1.1807680064089832,-18.60241081999668,7.612311722582059,1.0,449,359,441,351
2024-08-05 22:45:51,1500,2011,988,1500,True,ANGLE,-1.1807680064089832,-18.60241081999668,7.612311722582059,1.0,449,359,441,351
2024-08-05 22:45:51,1500,2011,988,1500,True,ANGLE,-1.1807680064089832,-18.60241081999668,7.612311722582059,1.0,449,359,441,351
2024-08-05 22:45:51,1500,2011,988,1500,True,ANGLE,-1.1807680064089832,-18.60241081999668,7.612311722582059,1.0,449,359,441,351
2024-08-05 22:45:51,1500,2011,988,1500,True,ANGLE,-1.1807680064089832,-18.60241081999668,7.612311722582059,1.0,449,359,441,351
2024-08-05 22:45:51,1500,2011,988,1500,True,ANGLE,-1.1807680064089832,-18.60241081999668,7.612311722582059,1.0,449,359,441,351
2024-08-05 22:45:51,1500,2011,988,1500,True,ANGLE,-1.1807680064089832,-18.60241081999668,7.612311722582059,1.0,449,359,441,351
2024-08-05 22:45:51,1500,2011,988,1500,True,ANGLE,-1.1807680064089832,-18.60241081999668,7.612311722582059,1.0,449,359,441,351
2024-08-05 22:45:51,1500,2011,988,1500,True,ANGLE,-1.1807680064089832,-18.60241081999668,7.612311722582059,1.0,449,359,441,351
2024-08-05 22:45:51,1500,2011,988,1500,True,ANGLE,-1.1807680064089832,-18.60241081999668,7.612311722582059,1.0,449,359,441,351
2024-08-05 22:45:51,1500,2011,988,1500,True,ANGLE,-1.1807680064089832,-18.60241081999668,7.612311722582059,1.0,449,359,441,351
2024-08-05 22:45:51,1500,2011,988,1500,True,ANGLE,-1.1807680064089832,-18.60241081999668,7.612311722582059,1.0,449,359,441,351
2024-08-05 22:45:51,1500,2011,988,1500,True,ANGLE,-1.1807680064089832,-18.60241081999668,7.612311722582059,1.0,449,359,441,351
2024-08-05 22:45:51,1500,2005,988,1500,True,ANGLE,-1.1807680064089832,-18.60241081999668,7.612311722582059,1.0,448,360,440,352
2024-08-05 22:45:51,1500,2005,988,1500,True,ANGLE,-1.1807680064089832,-18.60241081999668,7.612311722582059,1.0,448,360,440,352
2024-08-05 22:45:51,1500,2005,988,1500,True,ANGLE,-1.1807680064089832,-18.60241081999668,7.612311722582059,1.0,448,360,440,352
2024-08-05 22:45:51,1500,1995,988,1500,True,ANGLE,-1.1807680064089832,-18.60241081999668,7.612311722582059,1.0,446,362,438,354
2024-08-05 22:45:51,1500,1995,988,1500,True,ANGLE,-1.1807680064089832,-18.60241081999668,7.612311722582059,1.0,446,362,438,354
2024-08-05 22:45:51,1500,1976,988,1500,True,ANGLE,-1.1807680064089832,-18.60241081999668,7.612311722582059,1.0,443,365,435,357
2024-08-05 22:45:51,1500,1976,988,1500,True,ANGLE,-1.1807680064089832,-18.60241081999668,7.612311722582059,1.0,443,365,435,357
2024-08-05 22:45:51,1500,1976,988,1500,True,ANGLE,-1.1807680064089832,-18.60241081999668,7.612311722582059,1.0,443,365,435,357
2024-08-05 22:45:51,1500,1976,988,1500,True,ANGLE,-1.1807680064089832,-18.60241081999668,7.612311722582059,1.0,443,365,435,357
2024-08-05 22:45:51,1500,1923,988,1500,True,ANGLE,-1.1807680064089832,-18.60241081999668,7.612311722582059,1.0,435,373,427,365
2024-08-05 22:45:51,1500,1923,988,1500,True,ANGLE,-1.1807680064089832,-18.60241081999668,7.612311722582059,1.0,435,373,427,365
2024-08-05 22:45:51,1500,1923,988,1500,True,ANGLE,-1.1807680064089832,-18.60241081999668,7.612311722582059,1.0,435,373,427,365
2024-08-05 22:45:51,1500,1861,988,1500,True,ANGLE,-1.1807680064089832,-18.60241081999668,7.612311722582059,1.0,427,381,419,373
2024-08-05 22:45:51,1500,1822,988,1500,True,ANGLE,-1.1807680064089832,-18.60241081999668,7.612311722582059,1.0,423,385,415,377
2024-08-05 22:45:52,1500,1822,988,1500,True,ANGLE,-1.1807680064089832,-18.60241081999668,7.612311722582059,1.0,423,385,415,377
2024-08-05 22:45:52,1500,1822,988,1500,True,ANGLE,-1.1807680064089832,-18.60241081999668,7.612311722582059,1.0,423,385,415,377
2024-08-05 22:45:52,1500,1782,988,1500,True,ANGLE,-1.1807680064089832,-18.60241081999668,7.612311722582059,1.0,419,389,411,381
2024-08-05 22:45:52,1500,1740,988,1500,True,ANGLE,-1.1807680064089832,-18.60241081999668,7.612311722582059,1.0,415,393,407,385
2024-08-05 22:45:52,1500,1740,988,1500,True,ANGLE,-1.1807680064089832,-18.60241081999668,7.612311722582059,1.0,415,393,407,385
2024-08-05 22:45:52,1500,1740,988,1500,True,ANGLE,-1.1807680064089832,-18.60241081999668,7.612311722582059,1.0,415,393,407,385
2024-08-05 22:45:52,1500,1688,988,1500,True,ANGLE,-1.1807680064089832,-18.60241081999668,7.612311722582059,1.0,411,397,403,389
2024-08-05 22:45:52,1500,1641,988,1500,True,ANGLE,-1.1807680064089832,-18.60241081999668,7.612311722582059,1.0,408,400,400,392
2024-08-05 22:45:52,1500,1641,988,1500,True,ANGLE,-1.1807680064089832,-18.60241081999668,7.612311722582059,1.0,408,400,400,392
2024-08-05 22:45:52,1500,1590,988,1500,True,ANGLE,-1.1807680064089832,-18.60241081999668,7.612311722582059,1.0,406,402,398,394
2024-08-05 22:45:52,1500,1590,988,1500,True,ANGLE,-1.1807680064089832,-18.60241081999668,7.612311722582059,1.0,406,402,398,394
2024-08-05 22:45:52,1500,1590,988,1500,True,ANGLE,-1.1807680064089832,-18.60241081999668,7.612311722582059,1.0,406,402,398,394
2024-08-05 22:45:52,1500,1533,988,1500,True,ANGLE,-1.1807680064089832,-18.60241081999668,7.612311722582059,1.0,405,403,397,395
2024-08-05 22:45:52,1500,1500,988,1500,True,ANGLE,-1.1807680064089832,-18.60241081999668,7.612311722582059,1.0,404,404,396,396
2024-08-05 22:45:52,1500,1500,988,1500,True,ANGLE,-1.1807680064089832,-18.60241081999668,7.612311722582059,1.0,404,404,396,396
2024-08-05 22:45:52,1500,1500,988,1500,True,ANGLE,-1.1807680064089832,-18.60241081999668,7.612311722582059,1.0,404,404,396,396
2024-08-05 22:45:52,1500,1495,988,1500,True,ANGLE,-1.1807680064089832,-18.60241081999668,7.612311722582059,1.0,404,404,396,396
2024-08-05 22:45:52,1500,1455,988,1500,True,ANGLE,-1.1807680064089832,-18.60241081999668,7.612311722582059,1.0,404,404,396,396
2024-08-05 22:45:52,1500,1455,988,1500,True,ANGLE,-1.1807680064089832,-18.60241081999668,7.612311722582059,1.0,404,404,396,396
2024-08-05 22:45:52,1500,1405,988,1500,True,ANGLE,-1.1807680064089832,-18.60241081999668,7.612311722582059,1.0,403,405,395,397
2024-08-05 22:45:52,1500,1405,988,1500,True,ANGLE,-1.1807680064089832,-18.60241081999668,7.612311722582059,1.0,403,405,395,397
2024-08-05 22:45:52,1500,1405,988,1500,True,ANGLE,-1.1807680064089832,-18.60241081999668,7.612311722582059,1.0,403,405,395,397
2024-08-05 22:45:52,1500,1356,988,1500,True,ANGLE,-1.1807680064089832,-18.60241081999668,7.612311722582059,1.0,402,406,394,398
2024-08-05 22:45:52,1500,1313,988,1500,True,ANGLE,-1.1807680064089832,-18.60241081999668,7.612311722582059,1.0,400,408,392,400
2024-08-05 22:45:52,1500,1313,988,1500,True,ANGLE,-1.1807680064089832,-18.60241081999668,7.612311722582059,1.0,400,408,392,400
2024-08-05 22:45:52,1500,1270,988,1500,True,ANGLE,-1.1807680064089832,-18.60241081999668,7.612311722582059,1.0,397,411,389,403
2024-08-05 22:45:52,1500,1270,988,1500,True,ANGLE,-1.1807680064089832,-18.60241081999668,7.612311722582059,1.0,397,411,389,403
2024-08-05 22:45:52,1500,1270,988,1500,True,ANGLE,-1.1807680064089832,-18.60241081999668,7.612311722582059,1.0,397,411,389,403
2024-08-05 22:45:52,1500,1227,988,1500,True,ANGLE,-1.1807680064089832,-18.60241081999668,7.612311722582059,1.0,394,414,386,406
2024-08-05 22:45:52,1500,1227,988,1500,True,ANGLE,-1.1807680064089832,-18.60241081999668,7.612311722582059,1.0,394,414,386,406
2024-08-05 22:45:52,1500,1165,988,1500,True,ANGLE,-1.1807680064089832,-18.60241081999668,7.612311722582059,1.0,389,419,381,411
2024-08-05 22:45:52,1500,1165,988,1500,True,ANGLE,-1.1807680064089832,-18.60241081999668,7.612311722582059,1.0,389,419,381,411
2024-08-05 22:45:52,1500,1165,988,1500,True,ANGLE,-1.1807680064089832,-18.60241081999668,7.612311722582059,1.0,389,419,381,411
2024-08-05 22:45:52,1500,1127,988,1500,True,ANGLE,-1.1807680064089832,-18.60241081999668,7.612311722582059,1.0,385,423,377,415
2024-08-05 22:45:52,1500,1100,988,1500,True,ANGLE,-1.1807680064089832,-18.60241081999668,7.612311722582059,1.0,382,426,374,418
2024-08-05 22:45:52,1500,1100,988,1500,True,ANGLE,-1.1807680064089832,-18.60241081999668,7.612311722582059,1.0,382,426,374,418
2024-08-05 22:45:52,1500,1072,988,1500,True,ANGLE,-1.1807680064089832,-18.60241081999668,7.612311722582059,1.0,379,429,371,421
2024-08-05 22:45:52,1500,1072,988,1500,True,ANGLE,-1.1807680064089832,-18.60241081999668,7.612311722582059,1.0,379,429,371,421
2024-08-05 22:45:52,1500,1072,988,1500,True,ANGLE,-1.1807680064089832,-18.60241081999668,7.612311722582059,1.0,379,429,371,421
